district,schoolName,schoolAddress,medianResult,unit,lead,status,city,county,latitude,longitude
Charter Oak Unified,Badillo Elementary,1771 East Old Badillo Avenue Covina CA 91724-3126,NA,NA,FALSE,tested,Covina,Los Angeles County,34.087474,-117.854306
Charter Oak Unified,Bridges Community Day,1505 South Sunflower Ave. Glendora CA 91740-5839,6,ppb,TRUE,tested,Glendora,Los Angeles County,34.11144,-117.846239
Charter Oak Unified,Cedargrove Elementary,1209 North Glendora Avenue Covina CA 91724-1506,5.2,ppb,TRUE,tested,Covina,Los Angeles County,34.099711,-117.863902
Charter Oak Unified,Charter Oak High,1430 East Covina Boulevard Covina CA 91724-1651,NA,NA,FALSE,tested,Covina,Los Angeles County,34.099415,-117.862688
Charter Oak Unified,Glen Oak Elementary,1000 North Sunflower Ave Covina CA 91724-2307,NA,NA,FALSE,tested,Covina,Los Angeles County,34.098204,-117.846271
Charter Oak Unified,Royal Oak Middle,303 South Glendora Avenue Covina CA 91724-3235,NA,NA,FALSE,tested,West Covina,Los Angeles County,34.069217,-117.923389
Charter Oak Unified,Stone Ridge Academy,1115 East Puente St Covina CA 91724,NA,NA,NA,not tested,Covina,Los Angeles County,34.083469,-117.86773
Charter Oak Unified,Washington Elementary,325 West Gladstone Glendora CA 91740-5503,NA,NA,FALSE,tested,Glendora,Los Angeles County,34.11449,-117.868551
Charter Oak Unified,Willow Elementary,1427 South Willow Glendora CA 91740-5826,NA,NA,FALSE,tested,Glendora,Los Angeles County,34.109438,-117.841836
