district,schoolName,schoolAddress,medianResult,unit,lead,status,city,county,latitude,longitude
Eastside Union Elementary,Columbia Elementary,2640 East Avenue J-4 Lancaster CA 93535-2882,NA,NA,FALSE,tested,Lancaster,Los Angeles County,34.686072,-118.084287
Eastside Union Elementary,Eastside Academy/Transitional Learning Center,44958 30th Street East Lancaster CA 93535,NA,NA,NA,not tested,Lancaster,Los Angeles County,34.699958,-118.076952
Eastside Union Elementary,Enterprise Elementary,3730 East Avenue J-4 Lancaster CA 93535,NA,NA,NA,not tested,Lancaster,Los Angeles County,34.686154,-118.083638
Eastside Union Elementary,Gifford C. Cole Middle,3126 East Avenue I Lancaster CA 93535-7849,NA,NA,FALSE,tested,Lancaster,Los Angeles County,34.704362,-118.074891
Eastside Union Elementary,Tierra Bonita Elementary,44820 North 27th Street East Lancaster CA 93535-2820,NA,NA,FALSE,tested,Lancaster,Los Angeles County,34.697536,-118.081299
