district,schoolName,schoolAddress,medianResult,unit,lead,status,city,county,latitude,longitude,maxResult
Eastside Union Elementary,Columbia Elementary,2640 East Avenue J-4 Lancaster CA 93535-2882,,,False,tested,Lancaster,Los Angeles County,34.686071999999996,-118.08428700000002,
Eastside Union Elementary,Eastside Academy/Transitional Learning Center,44958 30th Street East Lancaster CA 93535,,,,not tested,Lancaster,Los Angeles County,34.699958,-118.076952,
Eastside Union Elementary,Enterprise Elementary,3730 East Avenue J-4 Lancaster CA 93535,,,,not tested,Lancaster,Los Angeles County,34.686153999999995,-118.083638,
Eastside Union Elementary,Gifford C. Cole Middle,3126 East Avenue I Lancaster CA 93535-7849,,,False,tested,Lancaster,Los Angeles County,34.704361999999996,-118.074891,
Eastside Union Elementary,Tierra Bonita Elementary,44820 North 27th Street East Lancaster CA 93535-2820,,,False,tested,Lancaster,Los Angeles County,34.697536,-118.081299,
