district,schoolName,schoolAddress,medianResult,unit,lead,status,city,county,latitude,longitude
Eureka Union,Excelsior Elementary,2701 Eureka Road Roseville CA 95661-6447,NA,NA,FALSE,tested,Roseville,Placer County,38.737266,-121.238138
Eureka Union,Greenhills Elementary,8200 Greenhills Way Granite Bay CA 95746-4300,NA,NA,FALSE,tested,Granite Bay,Placer County,38.750316,-121.216498
Eureka Union,Maidu Elementary,1950 Johnson Ranch Drive Roseville CA 95661-3749,NA,NA,FALSE,tested,Roseville,Placer County,38.738603,-121.247271
Eureka Union,Oakhills Elementary,9233 Twin School Road Granite Bay CA 95746-7100,NA,NA,FALSE,tested,Granite Bay,Placer County,38.731043,-121.206479
Eureka Union,Olive Ranch School,5280 Stirling St Granite Bay CA 95746,NA,NA,FALSE,tested,NA,Placer County,38.751934,-121.205048
Eureka Union,Olympus Junior High,2625 La Croix Drive Roseville CA 95661-3959,NA,NA,FALSE,tested,Roseville,Placer County,38.748001,-121.233866
Eureka Union,Ridgeview Elementary,9177 Twin School Road Granite Bay CA 95746-7100,NA,NA,FALSE,tested,Granite Bay,Placer County,38.731801,-121.206785
Eureka Union,Willma Cavitt Junior High,7200 Fuller Drive Granite Bay CA 95746-6247,5.1,ppb,TRUE,tested,NA,Placer County,38.739944,-121.166279
