district,schoolName,schoolAddress,medianResult,unit,lead,status,city,county,latitude,longitude,maxResult
Farmersville Unified,Deep Creek Academy,281 South Farmersville Boulevard Farmersville CA 93223-1833,,,False,tested,Farmersville,Tulare County,36.297482,-119.207342,
Farmersville Unified,Farmersville High,631 East Walnut Avenue Farmersville CA 93223-2203,,,False,tested,Farmersville,Tulare County,36.310687,-119.200769,
Farmersville Unified,Farmersville Junior High,650 North Virginia Street Farmersville CA 93223-1120,,,False,tested,Farmersville,Tulare County,36.303191,-119.21463999999999,
Farmersville Unified,Freedom Elementary,575 East Citrus Farmersville CA 93223-1274,,,False,tested,Farmersville,Tulare County,36.30755,-119.20179499999999,
Farmersville Unified,George L. Snowden Elementary,301 South Farmersville Boulevard Farmersville CA 93223-1835,,,False,tested,Farmersville,Tulare County,36.295424,-119.20813600000001,
Farmersville Unified,J. E. Hester Elementary,477 East Ash Street Farmersville CA 93223-1209,53.2,ppb,True,tested,Farmersville,Tulare County,36.300973,-119.202155,53.2
