district,schoolName,schoolAddress,medianResult,unit,lead,status,city,county,latitude,longitude,maxResult
Keppel Union Elementary,Alpine Elementary,8244 East Pearblossom Highway Littlerock CA 93543-3042,,,False,tested,,Los Angeles County,34.521025,-117.98338100000001,
Keppel Union Elementary,Antelope Elementary,37237 North 100th Street East Littlerock CA 93543-1501,,,False,tested,Littlerock,Los Angeles County,34.55862,-117.95196999999999,
Keppel Union Elementary,Daisy Gibson Elementary,9650 East Palmdale Boulevard Palmdale CA 93591-2235,,,False,tested,Palmdale,Los Angeles County,34.579684,-117.957246,
Keppel Union Elementary,Keppel Academy,9330 East Avenue U Littlerock CA 93543-3107,7.0,ppb,True,tested,,Los Angeles County,34.528339,-117.96386100000001,7.0
Keppel Union Elementary,Lake Los Angeles Elementary,16310 East Avenue Q Palmdale CA 93591-3603,,,False,tested,Palmdale,Los Angeles County,34.587157,-117.83986100000001,
Keppel Union Elementary,Pearblossom Elementary,12828 East Avenue W Pearblossom CA 93553-0186,,,False,tested,,Los Angeles County,34.499365999999995,-117.93381299999999,
