district,schoolName,schoolAddress,medianResult,unit,lead,status,city,county,latitude,longitude
Keppel Union Elementary,Alpine Elementary,8244 East Pearblossom Highway Littlerock CA 93543-3042,NA,NA,FALSE,tested,NA,Los Angeles County,34.521025,-117.983381
Keppel Union Elementary,Antelope Elementary,37237 North 100th Street East Littlerock CA 93543-1501,NA,NA,FALSE,tested,Littlerock,Los Angeles County,34.55862,-117.95197
Keppel Union Elementary,Daisy Gibson Elementary,9650 East Palmdale Boulevard Palmdale CA 93591-2235,NA,NA,FALSE,tested,Palmdale,Los Angeles County,34.579684,-117.957246
Keppel Union Elementary,Keppel Academy,9330 East Avenue U Littlerock CA 93543-3107,7,ppb,TRUE,tested,NA,Los Angeles County,34.528339,-117.963861
Keppel Union Elementary,Lake Los Angeles Elementary,16310 East Avenue Q Palmdale CA 93591-3603,NA,NA,FALSE,tested,Palmdale,Los Angeles County,34.587157,-117.839861
Keppel Union Elementary,Pearblossom Elementary,12828 East Avenue W Pearblossom CA 93553-0186,NA,NA,FALSE,tested,NA,Los Angeles County,34.499366,-117.933813
