district,schoolName,schoolAddress,medianResult,unit,lead,status,city,county,latitude,longitude,maxResult
Lake Tahoe Unified,Al Tahoe,1100 Lyons Ave South Lake Tahoe CA 96150,32.0,ppb,True,tested,South Lake Tahoe,El Dorado County,38.937957,-119.97535400000001,41.0
Lake Tahoe Unified,Bijou Community,3501 Spruce Avenue South Lake Tahoe CA 96150-8317,,,False,tested,South Lake Tahoe,El Dorado County,38.941982,-119.95581499999999,
Lake Tahoe Unified,Lake Tahoe Environmental Science Magnet,1095 San Bernardino Avenue South Lake Tahoe CA 96150-5235,,,False,tested,South Lake Tahoe,El Dorado County,38.860207,-120.020748,
Lake Tahoe Unified,Mt. Tallac High,1735 Lake Tahoe Boulevard South Lake Tahoe CA 96150-3718,,,False,tested,South Lake Tahoe,El Dorado County,38.909964,-120.01530100000001,
Lake Tahoe Unified,Mt. Tallac High,1735 Lake Tahoe Boulevard B South Lake Tahoe CA 96150-3718,,,,not tested,South Lake Tahoe,El Dorado County,38.909964,-120.01530100000001,
Lake Tahoe Unified,Sierra House Elementary,1709 Remington Trail South Lake Tahoe CA 96150-6825,,,False,tested,South Lake Tahoe,El Dorado County,38.906857,-119.96321599999999,
Lake Tahoe Unified,South Tahoe High,1735 Lake Tahoe Blvd South Lake Tahoe CA 96150-3718,,,False,tested,South Lake Tahoe,El Dorado County,38.909964,-120.01530100000001,
Lake Tahoe Unified,South Tahoe Middle,2940 Lake Tahoe Boulevard South Lake Tahoe CA 96150-7800,,,False,tested,South Lake Tahoe,El Dorado County,38.935821000000004,-119.976887,
Lake Tahoe Unified,Tahoe Valley Elementary,943 Tahoe Island Drive South Lake Tahoe CA 96150-4200,7.8,ppb,True,tested,South Lake Tahoe,El Dorado County,38.921103,-120.003674,7.8
