district,schoolName,schoolAddress,medianResult,unit,lead,status,city,county,latitude,longitude
Loomis Union Elementary,Franklin Elementary,7050 Franklin School Road Loomis CA 95650-8952,NA,NA,FALSE,tested,Loomis,Placer County,38.787711,-121.172231
Loomis Union Elementary,H. Clarke Powers Elementary,3296 Humphrey Road Loomis CA 95650-9043,NA,NA,FALSE,tested,NA,Placer County,38.830061,-121.201147
Loomis Union Elementary,Loomis Basin Charter School,5438 Laird Road Loomis CA 95650,NA,NA,FALSE,tested,NA,Placer County,38.789392,-121.17007
Loomis Union Elementary,Loomis Elementary,3505 Taylor Road Loomis CA 95650-9501,NA,NA,FALSE,tested,NA,Placer County,38.823734,-121.191791
Loomis Union Elementary,Penryn Elementary,6885 English Colony Way Penryn CA 95663-9531,NA,NA,NA,not tested,NA,Placer County,38.854735,-121.176193
Loomis Union Elementary,Placer Elementary,8650 Horseshoe Bar Road Loomis CA 95650-9777,NA,NA,FALSE,tested,NA,Placer County,38.809474,-121.14265
