district,schoolName,schoolAddress,medianResult,unit,lead,status,city,county,latitude,longitude,maxResult
Lowell Joint,El Portal Elementary,200 North Nada Street La Habra CA 90631-4451,,,False,tested,La Habra,Orange County,33.933824,-117.96601799999999,
Lowell Joint,Jordan Elementary,10654 Jordan Road Whittier CA 90603-2931,5.9,ppb,True,tested,Whittier,Los Angeles County,33.93795,-117.97986399999999,5.9
Lowell Joint,Macy Elementary,2301 West Russell Street La Habra CA 90631-2473,,,False,tested,La Habra,Orange County,33.944796000000004,-117.97188600000001,
Lowell Joint,Meadow Green Elementary,12025 South Grovedale Drive Whittier CA 90604-3754,,,False,tested,,Los Angeles County,33.921275,-117.98928899999999,
Lowell Joint,Olita Elementary,950 South Briercliff Drive La Habra CA 90631-6223,8.3,ppb,True,tested,La Habra,Orange County,33.920367999999996,-117.973665,8.3
Lowell Joint,Rancho-Starbuck Intermediate,16430 Woodbrier Drive Whittier CA 90604-4021,,,False,tested,La Habra,Los Angeles County,33.920043,-117.978632,
