district,schoolName,schoolAddress,medianResult,unit,lead,status,city,county,latitude,longitude,maxResult
Orcutt Union Elementary,Alice Shaw Elementary,759 Dahlia Place Santa Maria CA 93455-2931,,,False,tested,,Santa Barbara County,34.888958,-120.426051,
Orcutt Union Elementary,Joe Nightingale Elementary,255 Winter Road Santa Maria CA 93455-2643,,,False,tested,,Santa Barbara County,34.898257,-120.435102,
Orcutt Union Elementary,Lakeview Junior High,3700 Orcutt Road Santa Maria CA 93455-2602,,,False,tested,,Santa Barbara County,34.892368,-120.436117,
Orcutt Union Elementary,Olga L. Reed Elementary,480 Centennial Street Los Alamos CA 93440-0318,,,False,tested,,Santa Barbara County,34.740901,-120.279664,
Orcutt Union Elementary,Orcutt Academy Charter,500 Dyer Street Orcutt CA 93455-5300,,,False,tested,,Santa Barbara County,34.862219,-120.442117,
Orcutt Union Elementary,Orcutt Junior High,608 Pinal Street Santa Maria CA 93455-5302,,,False,tested,Orcutt,Santa Barbara County,34.863057,-120.44103899999999,
Orcutt Union Elementary,Patterson Road Elementary,400 Patterson Road Santa Maria CA 93455-4806,,,False,tested,Santa Maria,Santa Barbara County,34.867903999999996,-120.43108500000001,
Orcutt Union Elementary,Pine Grove Elementary,1050 East Rice Ranch Road Santa Maria CA 93455-5068,,,False,tested,Santa Maria,Santa Barbara County,34.856324,-120.41921799999999,
Orcutt Union Elementary,Ralph Dunlap Elementary,1220 Oak Knoll Road Santa Maria CA 93455-4301,,,False,tested,Santa Maria,Santa Barbara County,34.87021,-120.41372,
