district,schoolName,schoolAddress,medianResult,unit,lead,status,city,county,latitude,longitude
Orcutt Union Elementary,Alice Shaw Elementary,759 Dahlia Place Santa Maria CA 93455-2931,NA,NA,FALSE,tested,NA,Santa Barbara County,34.888958,-120.426051
Orcutt Union Elementary,Joe Nightingale Elementary,255 Winter Road Santa Maria CA 93455-2643,NA,NA,FALSE,tested,NA,Santa Barbara County,34.898257,-120.435102
Orcutt Union Elementary,Lakeview Junior High,3700 Orcutt Road Santa Maria CA 93455-2602,NA,NA,FALSE,tested,NA,Santa Barbara County,34.892368,-120.436117
Orcutt Union Elementary,Olga L. Reed Elementary,480 Centennial Street Los Alamos CA 93440-0318,NA,NA,FALSE,tested,NA,Santa Barbara County,34.740901,-120.279664
Orcutt Union Elementary,Orcutt Academy Charter,500 Dyer Street Orcutt CA 93455-5300,NA,NA,FALSE,tested,NA,Santa Barbara County,34.862219,-120.442117
Orcutt Union Elementary,Orcutt Junior High,608 Pinal Street Santa Maria CA 93455-5302,NA,NA,FALSE,tested,Orcutt,Santa Barbara County,34.863057,-120.441039
Orcutt Union Elementary,Patterson Road Elementary,400 Patterson Road Santa Maria CA 93455-4806,NA,NA,FALSE,tested,Santa Maria,Santa Barbara County,34.867904,-120.431085
Orcutt Union Elementary,Pine Grove Elementary,1050 East Rice Ranch Road Santa Maria CA 93455-5068,NA,NA,FALSE,tested,Santa Maria,Santa Barbara County,34.856324,-120.419218
Orcutt Union Elementary,Ralph Dunlap Elementary,1220 Oak Knoll Road Santa Maria CA 93455-4301,NA,NA,FALSE,tested,Santa Maria,Santa Barbara County,34.87021,-120.41372
