district,schoolName,schoolAddress,medianResult,unit,lead,status,city,county,latitude,longitude
Benicia Unified,Benicia High,1101 Military West Benicia CA 94510-2428,NA,NA,NA,not tested,NA,Solano County,38.064203,-122.175536
Benicia Unified,Benicia Middle,1100 Southampton Road Benicia CA 94510-1725,NA,NA,NA,not tested,NA,Solano County,38.069572,-122.175397
Benicia Unified,Community Day,426 East K Street Benicia CA 94510,NA,NA,NA,not tested,NA,Solano County,38.049727,-122.149154
Benicia Unified,Joe Henderson Elementary,650 Hastings Drive Benicia CA 94510-1312,NA,NA,NA,not tested,NA,Solano County,38.080357,-122.171815
Benicia Unified,Liberty High,351 East J Street Benicia CA 94510-3437,NA,NA,NA,not tested,NA,Solano County,38.049963,-122.151636
Benicia Unified,Mary Farmar Elementary,901 Military West Benicia CA 94510-2558,NA,NA,NA,not tested,NA,Solano County,38.061519,-122.171541
Benicia Unified,Matthew Turner Elementary,540 Rose Drive Benicia CA 94510-3761,NA,NA,NA,not tested,NA,Solano County,38.085378,-122.159524
Benicia Unified,Robert Semple Elementary,2015 East Third Street Benicia CA 94510-2206,NA,NA,NA,not tested,Benicia,Solano County,38.059083,-122.146949
