district,schoolName,schoolAddress,medianResult,unit,lead,status,city,county,latitude,longitude,maxResult
Stanislaus Union Elementary,Agnes M. Baptist Elementary,1825 Cheyenne Way Modesto CA 95356-0987,,,False,tested,Modesto,Stanislaus County,37.693425,-121.02533799999999,
Stanislaus Union Elementary,George Eisenhut Elementary,1809 Sheldon Drive Modesto CA 95350-0420,,,False,tested,Modesto,Stanislaus County,37.685531,-121.025145,
Stanislaus Union Elementary,Josephine Chrysler Elementary,2818 Conant Avenue Modesto CA 95350-1752,,,False,tested,Modesto,Stanislaus County,37.681065000000004,-121.04038899999999,
Stanislaus Union Elementary,Mary Lou Dieterich Elementary,2412 Warm Springs Drive Modesto CA 95350-9399,,,False,tested,Modesto,Stanislaus County,37.698822,-121.038758,
Stanislaus Union Elementary,Prescott Junior High,2243 West Rumble Road Modesto CA 95350-0219,,,False,tested,Modesto,Stanislaus County,37.682415,-121.03611799999999,
Stanislaus Union Elementary,Stanislaus Elementary,1931 Kiernan Avenue Modesto CA 95356-9159,,,,not tested,Modesto,Stanislaus County,37.711394,-121.03841399999999,
