district,schoolName,schoolAddress,medianResult,unit,lead,status,city,county,latitude,longitude
Tamalpais Union High,Redwood High,395 Doherty Drive Larkspur CA 94939-1536,NA,NA,FALSE,tested,Larkspur,Marin County,37.937996,-122.534694
Tamalpais Union High,San Andreas High (Continuation),599 William Avenue Larkspur CA 94939-1554,NA,NA,FALSE,tested,Larkspur,Marin County,37.934279,-122.528317
Tamalpais Union High,Sir Francis Drake High,1327 Sir Francis Drake Boulevard San Anselmo CA 94960-1800,NA,NA,FALSE,tested,San Anselmo,Marin County,37.983305,-122.572556
Tamalpais Union High,Tamalpais Adult/Community Education,375 Doherty Drive Larkspur CA 94939-1536,NA,NA,NA,not tested,Larkspur,Marin County,37.937999,-122.534682
Tamalpais Union High,Tamalpais High,700 Miller Avenue Mill Valley CA 94941-2926,NA,NA,FALSE,tested,NA,Marin County,37.890612,-122.527731
Tamalpais Union High,Tamiscal High (Alternative),305 Doherty Drive Larkspur CA 94939-0605,NA,NA,FALSE,tested,Larkspur,Marin County,37.938011,-122.534642
