district,schoolName,schoolAddress,medianResult,unit,lead,status,city,county,latitude,longitude,maxResult
Tehachapi Unified,Cummings Valley Elementary,24220 Bear Valley Road Hc80 Tehachapi CA 93561-8308,,,,not tested,Tehachapi,Kern County,35.133129,-118.575726,
Tehachapi Unified,Golden Hills Elementary,20215 Park Road Tehachapi CA 93561-6706,11.0,ppb,True,tested,Tehachapi,Kern County,35.128871000000004,-118.489678,11.0
Tehachapi Unified,Jacobsen Middle,711 Anita Drive Tehachapi CA 93561-1501,10.0,ppb,True,tested,Tehachapi,Kern County,35.126603,-118.43661000000002,10.0
Tehachapi Unified,Tehachapi High,801 South Dennison Road Tehachapi CA 93561-1524,150.0,ppb,True,tested,Tehachapi,Kern County,35.121534000000004,-118.432928,150.0
Tehachapi Unified,Tompkins Elementary,1120 South Curry Street Tehachapi CA 93561-2300,8.6,ppb,True,tested,Tehachapi,Kern County,35.117988000000004,-118.44865700000001,8.6
