district,schoolName,schoolAddress,medianResult,unit,lead,status,city,county,latitude,longitude
Twin Rivers Unified,Community Collaborative Charter,5715 Skvarla Avenue McClellan CA 95652-2424,NA,NA,NA,not tested,McClellan Park,Sacramento County,38.670954,-121.385524
Twin Rivers Unified,Community Outreach Academy-5640 Dudley,5640 Dudley Blvd McClellan CA 95652,NA,NA,NA,not tested,McClellan Park,Sacramento County,38.670273,-121.38677
Twin Rivers Unified,Community Outreach Academy-5712 Dudley,5712 Dudley Blvd McClellan CA 95652,NA,NA,NA,not tested,McClellan Park,Sacramento County,38.670904,-121.386703
Twin Rivers Unified,Community Outreach Academy-Bolivar,3800 Bolivar Avenue North Highlands CA 95660,NA,NA,FALSE,tested,NA,Sacramento County,38.67854,-121.378534
Twin Rivers Unified,Community Outreach Academy-Skvarla,5637 Skvarla Avenue McClellan CA 95652-2439,NA,NA,NA,not tested,McClellan Park,Sacramento County,38.669812,-121.384875
Twin Rivers Unified,Creative Connections Arts Academy,7201 Arutas Drive North Highlands CA 95660-2809,5.8,ppb,TRUE,tested,NA,Sacramento County,38.701107,-121.368899
Twin Rivers Unified,Creative Connections Arts Academy-Walerga,6444 Walerga Rd              North Highlands CA 95660,NA,NA,FALSE,tested,NA,Sacramento County,38.682762,-121.363669
Twin Rivers Unified,D. W. Babcock Elementary,2400 Cormorant Way Sacramento CA 95815-2715,NA,NA,FALSE,tested,Sacramento,Sacramento County,38.609906,-121.426781
Twin Rivers Unified,Del Paso Heights Elementary,590 Morey Avenue Sacramento CA 95838-3332,NA,NA,FALSE,tested,Sacramento,Sacramento County,38.634702,-121.452925
Twin Rivers Unified,Dry Creek Elementary,1230 G Street Rio Linda CA 95673-4414,NA,NA,FALSE,tested,NA,Sacramento County,38.68,-121.437039
Twin Rivers Unified,Fairbanks Elementary,227 Fairbanks Avenue Sacramento CA 95838-4799,10.1,ppb,TRUE,tested,Sacramento,Sacramento County,38.626062,-121.46178
Twin Rivers Unified,Foothill High,5000 McCloud Drive Sacramento CA 95842-2815,NA,NA,FALSE,tested,NA,Sacramento County,38.680742,-121.348855
Twin Rivers Unified,Foothill Oaks Elementary,5520 Lancelot Drive Sacramento CA 95842-2100,NA,NA,FALSE,tested,NA,Sacramento County,38.69193,-121.336267
Twin Rivers Unified,Foothill Ranch Middle,5001 Diablo Drive Sacramento CA 95842-3119,NA,NA,FALSE,tested,NA,Sacramento County,38.676108,-121.34593
Twin Rivers Unified,Frederick Joyce Elementary,6050 Watt Avenue North Highlands CA 95660-4212,NA,NA,FALSE,tested,NA,Sacramento County,38.676042,-121.38279
Twin Rivers Unified,Frontier Elementary,6691 Silverthorne Circle Sacramento CA 95842-2654,NA,NA,FALSE,tested,NA,Sacramento County,38.684577,-121.344356
Twin Rivers Unified,Futures High,3701 Stephen Drive North Highlands CA 95660-4532,NA,NA,NA,not tested,North Highlands,Sacramento County,38.677828,-121.377302
Twin Rivers Unified,Garden Valley Elementary,3601 Larchwood Drive Sacramento CA 95834-2212,NA,NA,FALSE,tested,Sacramento,Sacramento County,38.632852,-121.477045
Twin Rivers Unified,Grant Union High,1400 Grand Avenue Sacramento CA 95838-3624,NA,NA,FALSE,tested,Sacramento,Sacramento County,38.636462,-121.435228
Twin Rivers Unified,Hagginwood Elementary,1418 Palo Verde Avenue Sacramento CA 95815-1417,NA,NA,FALSE,tested,Sacramento,Sacramento County,38.623399,-121.434257
Twin Rivers Unified,Harmon Johnson Elementary,577 Las Palmas Avenue Sacramento CA 95815-2040,NA,NA,FALSE,tested,Sacramento,Sacramento County,38.618797,-121.452923
Twin Rivers Unified,Hazel Strauch Elementary,3141 Northstead Drive Sacramento CA 95833-1218,NA,NA,FALSE,tested,Sacramento,Sacramento County,38.624223,-121.480382
Twin Rivers Unified,Heritage Peak Charter,6450 20th Street Rio Linda CA 95673-3718,5.5,ppb,TRUE,tested,Sacramento,Sacramento County,38.684805,-121.419749
Twin Rivers Unified,Highlands High,6601 Guthrie Way North Highlands CA 95660-3911,8.3,ppb,TRUE,tested,North Highlands,Sacramento County,38.68805,-121.35893
Twin Rivers Unified,Hillsdale Elementary,6469 Guthrie Way North Highlands CA 95660-3995,5.3,ppb,TRUE,tested,North Highlands,Sacramento County,38.68496,-121.35779
Twin Rivers Unified,Kohler Elementary,4004 Bruce Way North Highlands CA 95660-4404,NA,NA,FALSE,tested,North Highlands,Sacramento County,38.678924,-121.366323
Twin Rivers Unified,Madison Elementary,5241 Harrison Street North Highlands CA 95660-5444,NA,NA,FALSE,tested,North Highlands,Sacramento County,38.662187,-121.37013
Twin Rivers Unified,Martin Luther King Jr. Technology Academy,3051 Fairfield Street Sacramento CA 95815-1199,NA,NA,FALSE,tested,Sacramento,Sacramento County,38.623412,-121.451312
Twin Rivers Unified,Michael J. Castori Elementary,1801 South Avenue Sacramento CA 95838-4636,NA,NA,FALSE,tested,Sacramento,Sacramento County,38.632876,-121.425185
Twin Rivers Unified,Miles P. Richmond,4330 Keema Avenue North Highlands CA 95660-3948,NA,NA,FALSE,tested,NA,Sacramento County,38.684847,-121.363027
Twin Rivers Unified,Morey Avenue Early Childhood Development,155 Morey Avenue Sacramento CA 95838-3219,NA,NA,FALSE,tested,Sacramento,Sacramento County,38.634856,-121.465016
Twin Rivers Unified,Noralto Elementary,477 Las Palmas Avenue Sacramento CA 95815-1605,NA,NA,FALSE,tested,Sacramento,Sacramento County,38.618816,-121.455236
Twin Rivers Unified,Northwood Elementary,2630 Taft Street Sacramento CA 95815-2335,NA,NA,FALSE,tested,Sacramento,Sacramento County,38.613829,-121.437987
Twin Rivers Unified,Norwood Junior High,4601 Norwood Avenue Sacramento CA 95838-2283,NA,NA,FALSE,tested,Sacramento,Sacramento County,38.650169,-121.457009
Twin Rivers Unified,Nova Opportunity,2035 North Avenue Sacramento CA 95838-1329,8.9,ppb,TRUE,tested,Sacramento,Sacramento County,38.640051,-121.418934
Twin Rivers Unified,Oakdale Elementary,3708 Myrtle Avenue North Highlands CA 95660-5204,NA,NA,FALSE,tested,NA,Sacramento County,38.653977,-121.377912
Twin Rivers Unified,Orchard Elementary,1040 Q Street Rio Linda CA 95673-1532,NA,NA,FALSE,tested,NA,Sacramento County,38.698146,-121.441949
Twin Rivers Unified,Pacific Career and Technology High,6560 Melrose Drive North Highlands CA 95660-4375,NA,NA,FALSE,tested,NA,Sacramento County,38.684303,-121.372955
Twin Rivers Unified,Pathways Community Day,6560 Melrose Dr. North Highlands CA 95660-4375,NA,NA,FALSE,tested,NA,Sacramento County,38.684303,-121.372955
Twin Rivers Unified,Pioneer Elementary,5816 Pioneer Way Sacramento CA 95841-2215,NA,NA,FALSE,tested,NA,Sacramento County,38.673199,-121.343329
Twin Rivers Unified,Regency Park Elementary,5901 Bridgecross Drive Sacramento CA 95835-1956,NA,NA,FALSE,tested,Sacramento,Sacramento County,38.681061,-121.500535
Twin Rivers Unified,Ridgepoint Elementary,4680 Monument Drive Sacramento CA 95842-4343,NA,NA,FALSE,tested,NA,Sacramento County,38.700679,-121.355754
Twin Rivers Unified,Rio Linda High,6309 Dry Creek Road Rio Linda CA 95673-4412,7.7,ppb,TRUE,tested,Sacramento,Sacramento County,38.682091,-121.438438
Twin Rivers Unified,Rio Linda Preparatory Academy,1101 G Street Rio Linda CA 95673-4327,NA,NA,FALSE,tested,NA,Sacramento County,38.68019,-121.439233
Twin Rivers Unified,Rio Tierra Junior High,3201 Northstead Drive Sacramento CA 95833-1216,NA,NA,FALSE,tested,Sacramento,Sacramento County,38.624568,-121.480475
Twin Rivers Unified,SAVA: Sacramento Academic and Vocational Academy,5330 Power Inn Road Suite D Sacramento CA 95820-6757,NA,NA,NA,not tested,Sacramento,Sacramento County,38.526859,-121.409776
Twin Rivers Unified,Sierra View Elementary,3638 Bainbridge Drive North Highlands CA 95660-2765,NA,NA,FALSE,tested,NA,Sacramento County,38.698752,-121.380204
Twin Rivers Unified,Smythe Academy Middle School,700 Dos Rios St Sacramento CA 95811,5.6,ppb,TRUE,tested,Sacramento,Sacramento County,38.596665,-121.483278
Twin Rivers Unified,Smythe Academy of Arts and Sciences,2781 Northgate Boulevard Sacramento CA 95833-2208,NA,NA,FALSE,tested,Sacramento,Sacramento County,38.61537,-121.475651
Twin Rivers Unified,St. Lawrence Elementary School,4325 Don Julio Blvd North Highlands CA 95660,NA,NA,NA,not tested,NA,Sacramento County,38.688755,-121.364776
Twin Rivers Unified,Village Elementary,6845 Larchmont Drive North Highlands CA 95660-3506,NA,NA,FALSE,tested,NA,Sacramento County,38.691519,-121.370039
Twin Rivers Unified,Vista Nueva Career and Technology High,2035 North Avenue Sacramento CA 95838-3129,NA,NA,NA,not tested,Sacramento,Sacramento County,38.640051,-121.418934
Twin Rivers Unified,Warren A. Allison Elementary,4315 Don Julio Boulevard North Highlands CA 95660-3838,NA,NA,FALSE,tested,NA,Sacramento County,38.688705,-121.36489
Twin Rivers Unified,Westside Elementary,6537 West Second Street Rio Linda CA 95673-3231,NA,NA,FALSE,tested,Rio Linda,Sacramento County,38.686458,-121.46664
Twin Rivers Unified,Westside Preparatory Charter,6469 Guthrie Way B North Highlands CA 95660,NA,NA,FALSE,tested,North Highlands,Sacramento County,38.68496,-121.35779
Twin Rivers Unified,Woodlake Elementary,700 Southgate Road Sacramento CA 95815-3895,NA,NA,FALSE,tested,Sacramento,Sacramento County,38.603108,-121.452223
Twin Rivers Unified,Woodridge Elementary,5761 Brett Drive Sacramento CA 95842-3161,NA,NA,FALSE,tested,NA,Sacramento County,38.673014,-121.352962
