district,schoolName,schoolAddress,medianResult,unit,lead,status,city,county,latitude,longitude
Denair Unified,Denair Charter Academy,3460 Lester Road Denair CA 95316-9502,NA,NA,FALSE,tested,Denair,Stanislaus County,37.523601,-120.805557
Denair Unified,Denair Elementary Charter Academy,3773 Madera Ave. Denair CA 95316-9428,5.47,ppb,TRUE,tested,Denair,Stanislaus County,37.526589,-120.800495
Denair Unified,Denair High,3431 Lester Road Denair CA 95316-9502,NA,NA,FALSE,tested,Denair,Stanislaus County,37.524403,-120.803725
Denair Unified,Denair Middle,3701 Lester Road Denair CA 95316,5.35,ppb,TRUE,tested,Denair,Stanislaus County,37.525655,-120.804382
Private,Reyn Franca,4041 Main Street Denair CA 95316,NA,NA,FALSE,tested,Denair,Stanislaus County,37.522813,-120.802319
