district,schoolName,schoolAddress,medianResult,unit,lead,status,city,county,latitude,longitude
Private,G.H.S. Academy,1060 Suncast Lane El Dorado Hills CA 95762,NA,NA,FALSE,tested,El Dorado Hills,El Dorado County,38.634726,-121.069474
Private,Holy Trinity School,3115 Tierra de Dios Drive El Dorado Hills CA 95762,NA,NA,FALSE,tested,El Dorado Hills,El Dorado County,38.658993,-121.018537
Rescue Union Elementary,Lake Forest Elementary,2240 Sailsbury Drive El Dorado Hills CA 95762-6984,NA,NA,FALSE,tested,El Dorado Hills,El Dorado County,38.720202,-121.084641
Rescue Union Elementary,Lakeview Elementary,3371 Brittany Way El Dorado Hills CA 95762-3996,NA,NA,FALSE,tested,El Dorado Hills,El Dorado County,38.698938,-121.094482
Buckeye Union Elementary,Oak Meadow Elementary,7701 Silva Valley Parkway El Dorado Hills CA 95762-7729,NA,NA,FALSE,tested,El Dorado Hills,El Dorado County,38.664207,-121.059268
El Dorado Union High,Oak Ridge High,1120 Harvard Way El Dorado Hills CA 95762-4324,NA,NA,FALSE,tested,El Dorado Hills,El Dorado County,38.679866,-121.070664
Buckeye Union Elementary,Rising Sun Montessori,7006 Rossmore Lane El Dorado Hills CA 95762-7126,NA,NA,FALSE,tested,El Dorado Hills,El Dorado County,38.653926,-121.060295
Buckeye Union Elementary,Rolling Hills Middle,7141 Silva Valley Parkway El Dorado Hills CA 95762-7862,NA,NA,FALSE,tested,El Dorado Hills,El Dorado County,38.681822,-121.067066
Buckeye Union Elementary,Silva Valley Elementary,3001 Golden Eagle Lane El Dorado Hills CA 95762-7500,NA,NA,FALSE,tested,El Dorado Hills,El Dorado County,38.674643,-121.06822
