district,schoolName,schoolAddress,medianResult,unit,lead,status,city,county,latitude,longitude,maxResult
Fresno Unified,Easterby Elementary,5211 East Tulare Street Fresno CA 93727-4048,,,False,tested,Fowler,Fresno County,36.626456,-119.674549,
Fowler Unified,Fowler Academy Continuation,975 E. Adams Avenue Fowler CA 93625-2702,,,,not tested,Fowler,Fresno County,36.634426,-119.667679,
Fowler Unified,Fowler High,701 East Main Street Fowler CA 93625-2423,,,,not tested,Fowler,Fresno County,36.633413,-119.670523,
Fowler Unified,John Sutter Middle,701 East Walter Fowler CA 93625-9792,,,,not tested,Fowler,Fresno County,36.630775,-119.670125,
Fresno Unified,Kings Canyon Middle,5117 East Tulare Street Fresno CA 93727-3999,,,False,tested,Fowler,Fresno County,36.626456,-119.674549,
Fowler Unified,Marshall Elementary,142 North Armstrong Avenue Fowler CA 93625-9601,,,,not tested,Fowler,Fresno County,36.635227,-119.67336200000001,
Fresno Unified,Roosevelt High,4250 East Tulare Street Fresno CA 93702-3037,,,False,tested,Fowler,Fresno County,36.626456,-119.674549,
