district,schoolName,schoolAddress,medianResult,unit,lead,status,city,county,latitude,longitude,maxResult
ABC Unified,Burbank (Luther) Elementary,17711 Roseton Avenue Artesia CA 90701-3837,,,,not tested,Artesia,Los Angeles County,33.870228000000004,-118.087244,
ABC Unified,Juarez (Benito) Elementary,11939 Aclare Street Cerritos CA 90703-2709,,,False,tested,Artesia,Los Angeles County,33.874513,-118.078883,
ABC Unified,Kennedy (John F.) Elementary,17500 Belshire Avenue Artesia CA 90701-4352,,,,not tested,Artesia,Los Angeles County,33.87219,-118.07061599999999,
ABC Unified,Niemes (John H.) Elementary,16715 Jersey Avenue Artesia CA 90701-1750,,,,not tested,Artesia,Los Angeles County,33.880036,-118.085722,
Private,Our Lady of Fatima,18626 Clarkdale Avenue Artesia CA 90701,,,False,tested,Artesia,Los Angeles County,33.861906,-118.078956,
ABC Unified,Ross (Faye) Middle,17707 Elaine Avenue Artesia CA 90701-4018,,,,not tested,Artesia,Los Angeles County,33.872951,-118.076916,
