district,schoolName,schoolAddress,medianResult,unit,lead,status,city,county,latitude,longitude
Manhattan Beach Unified,Aurelia Pennekamp Elementary,110 South Rowell Manhattan Beach CA 90266-6962,NA,NA,FALSE,tested,Manhattan Beach,Los Angeles County,33.879148,-118.389466
Manhattan Beach Unified,Grand View Elementary,455 24th Street Manhattan Beach CA 90266-4348,NA,NA,FALSE,tested,Manhattan Beach,Los Angeles County,33.893782,-118.412408
Manhattan Beach Unified,Manhattan Beach Middle,1501 Redondo Avenue Manhattan Beach CA 90266-4214,NA,NA,FALSE,tested,Manhattan Beach,Los Angeles County,33.889108,-118.38387
Manhattan Beach Unified,Manhattan Beach Preschool,1431 15th Street Manhattan Beach CA 90266-4077,NA,NA,FALSE,tested,Manhattan Beach,Los Angeles County,33.889358,-118.383042
Manhattan Beach Unified,Meadows Avenue Elementary,1200 Meadows Avenue Manhattan Beach CA 90266-4059,NA,NA,FALSE,tested,Manhattan Beach,Los Angeles County,33.88927,-118.390822
Manhattan Beach Unified,Mira Costa High,1401 Artesia Boulevard Manhattan Beach CA 90266-6968,NA,NA,FALSE,tested,Manhattan Beach,Los Angeles County,33.874266,-118.389539
Manhattan Beach Unified,Opal Robinson Elementary,80 Morningside Drive Manhattan Beach CA 90266-6562,NA,NA,FALSE,tested,Manhattan Beach,Los Angeles County,33.877799,-118.404858
Manhattan Beach Unified,Pacific Elementary,1200 Pacific Avenue Manhattan Beach CA 90266-4969,NA,NA,FALSE,tested,Manhattan Beach,Los Angeles County,33.887658,-118.403196
