district,schoolName,schoolAddress,medianResult,unit,lead,status,city,county,latitude,longitude,maxResult
Monterey County Office of Education,Bay View Academy,222 Casa Verde Avenue Monterey CA 93940-3753,8.0,ppb,True,tested,Monterey,Monterey County,36.60116,-121.866979,8.0
Big Sur Unified,Big Sur Charter,135 Webster Street Monterey CA 93940-3119,,,False,tested,Monterey,Monterey County,36.596087,-121.894659,
Big Sur Unified,Big Sur Charter,304 Foam Street Monterey CA 93940-3119,,,,not tested,Monterey,Monterey County,36.611168,-121.898599,
Monterey Peninsula Unified,Foothill Elementary,1700 Via Casoli Monterey CA 93940-6442,,,False,tested,Monterey,Monterey County,36.577727,-121.85512800000001,
Monterey Peninsula Unified,La Mesa Elementary,1 La Mesa Way Monterey CA 93940-4894,,,False,tested,Monterey,Monterey County,36.58165,-121.879046,
Monterey Peninsula Unified,Monte Vista,251 Soledad Drive Monterey CA 93940-4848,,,False,tested,Monterey,Monterey County,36.589033,-121.90781000000001,
Monterey Peninsula Unified,Monterey High,101 Herrmann Drive Monterey CA 93940-2538,6.0,ppb,True,tested,Monterey,Monterey County,36.595115,-121.900182,6.0
Private,Trinity Christian High School,601 East Franklin Street Monterey CA 93940,,,False,tested,Monterey,Monterey County,36.599119,-121.888798,
Monterey Peninsula Unified,Walter Colton,100 Toda Vista Drive Monterey CA 93940-4237,6.0,ppb,True,tested,Monterey,Monterey County,36.591627,-121.91333,6.0
