district,schoolName,schoolAddress,medianResult,unit,lead,status,city,county,latitude,longitude
Palos Verdes Peninsula Unified,Dapplegray Elementary,3011 Palos Verdes Drive North Rolling Hills Estates CA 90274-7303,NA,NA,FALSE,tested,Palos Verdes Estates,Los Angeles County,33.774103,-118.338231
Palos Verdes Peninsula Unified,Lunada Bay Elementary,520 Paseo Lunado Palos Verdes Estates CA 90274-4377,NA,NA,FALSE,tested,Palos Verdes Estates,Los Angeles County,33.767597,-118.417355
Wiseburn Unified,Malaga Cove School - Success Learning Center,300 Paseo Del Mar Palos Verdes Estates CA 90274-1272,NA,NA,FALSE,tested,Palos Verdes Estates,Los Angeles County,33.801568,-118.396643
Palos Verdes Peninsula Unified,Montemalaga Elementary,1121 Via Nogales Palos Verdes Estates CA 90274-1671,NA,NA,FALSE,tested,Palos Verdes Estates,Los Angeles County,33.790415,-118.395006
Palos Verdes Peninsula Unified,Palos Verdes High,600 Cloyden Road Palos Verdes Estates CA 90274-1869,NA,NA,FALSE,tested,Palos Verdes Estates,Los Angeles County,33.781603,-118.419332
Palos Verdes Peninsula Unified,Palos Verdes Intermediate,2161 Via Olivera Palos Verdes Estates CA 90274-1983,NA,NA,FALSE,tested,Palos Verdes Estates,Los Angeles County,33.777606,-118.412014
Palos Verdes Peninsula Unified,Valmonte Elementary,3801 Via La Selva Palos Verdes Estates CA 90274-1119,NA,NA,FALSE,tested,Palos Verdes Estates,Los Angeles County,33.800565,-118.364532
