district,schoolName,schoolAddress,medianResult,unit,lead,status,city,county,latitude,longitude,maxResult
South Whittier Elementary,Carmela Elementary,13300 Lakeland Road Whittier CA 90605-3241,,,,not tested,Santa Fe Springs,Los Angeles County,33.931657,-118.04867,
Little Lake City Elementary,Jersey Avenue Elementary,9400 Jersey Avenue Santa Fe Springs CA 90670-2859,,,False,tested,Santa Fe Springs,Los Angeles County,33.954453,-118.08185300000001,
Little Lake City Elementary,Lake Center Middle,10503 South Pioneer Boulevard Santa Fe Springs CA 90670-3703,,,False,tested,Santa Fe Springs,Los Angeles County,33.945104,-118.08082900000001,
Little Lake City Elementary,Lakeview Elementary,11500 East Joslin Street Santa Fe Springs CA 90670-3612,,,False,tested,Santa Fe Springs,Los Angeles County,33.944289000000005,-118.088504,
Norwalk-La Mirada Unified,Ramona Head Start/State Preschool,14616 Dinard Avenue Norwalk CA 90650-5110,,,False,tested,Santa Fe Springs,Los Angeles County,33.898455,-118.050886,
Los Nietos,Rancho Santa Gertrudes Elementary,11233 East Charlesworth Road Santa Fe Springs CA 90670-2820,,,False,tested,Santa Fe Springs,Los Angeles County,33.954482,-118.08130200000001,
South Whittier Elementary,Richard L. Graves Middle,13243 East Los Nietos Road Whittier CA 90605-3295,,,False,tested,Santa Fe Springs,Los Angeles County,33.943927,-118.051698,
Whittier Union High,Santa Fe High,10400 South Orr and Day Road Santa Fe Springs CA 90670-4161,8.9,ppb,True,tested,Santa Fe Springs,Los Angeles County,33.940125,-118.08998100000001,8.9
