district,schoolName,schoolAddress,medianResult,unit,lead,status,city,county,latitude,longitude
Capistrano Unified,Aliso Niguel High,28000 Wolverine Way Aliso Viejo CA 92656-3385,NA,NA,FALSE,tested,Aliso Viejo,Orange County,33.563297,-117.719641
Capistrano Unified,Aliso Viejo Middle,111 Park Avenue Aliso Viejo CA 92656-2847,NA,NA,FALSE,tested,Aliso Viejo,Orange County,33.579598,-117.713799
Capistrano Unified,Canyon Vista Elementary,27800 Oak View Drive Aliso Viejo CA 92656-6244,NA,NA,NA,not tested,Aliso Viejo,Orange County,33.562528,-117.734939
Capistrano Unified,Community Roots Academy,23431 Knollwood P-31 Aliso Viejo CA 92656,NA,NA,FALSE,tested,Aliso Viejo,Orange County,33.554458,-117.720726
Capistrano Unified,Don Juan Avila Elementary,26278 Wood Canyon Drive Aliso Viejo CA 92656-8060,NA,NA,FALSE,tested,Aliso Viejo,Orange County,33.562022,-117.734664
Capistrano Unified,Don Juan Avila Middle,26278 Wood Canyon Dr Aliso Viejo CA 92656-8060,NA,NA,NA,not tested,Aliso Viejo,Orange County,33.562022,-117.734664
Capistrano Unified,Journey,27102 Foxborough Aliso Viejo CA 92656-3377,NA,NA,FALSE,tested,Aliso Viejo,Orange County,33.567081,-117.719505
Capistrano Unified,Oak Grove Elementary,22705 Sanborn Aliso Viejo CA 92656-6055,NA,NA,FALSE,tested,Aliso Viejo,Orange County,33.575081,-117.735562
Capistrano Unified,Wood Canyon Elementary,23431 Knollwood Aliso Viejo CA 92656-4240,NA,NA,FALSE,tested,Aliso Viejo,Orange County,33.55354,-117.722009
